UBX.NAV.PVT:       2020-02-27T02:07:08.9z  -106.2120339 E  35.8185166 N   1965.0 m(MSL) speed = 0.029 m/s at NED: 0.010, 0.028, -0.106
NAV-PVT:
  iTOW=0x150E1F18
  year=0x07E4
  month=0x02
  day=0x1B
  hour=0x02
  min=0x07
  sec=0x09
  valid=0x37
  tAcc=0x00000001
  nano=0x-0068B4A
  fixType=0x03
  flags=0x43
  flags2=0xEA
  numSV=0x14
  lon=0x-3F4EAB93
  lat=0x155978CE
  height=0x001DA02C
  hMSL=0x001DFBC8
  hAcc=0x000007BF
  vAcc=0x00000B69
  velN=0x0000000A
  velE=0x0000001C
  velD=0x-000006A
  gSpeed=0x0000001D
  headMot=0x01F36623
  sAcc=0x000001D6
  headAcc=0x0112A880
  pDOP=0x0069
  flags3=0x00
  reserved1=0x00
  reserved1x=0x2C4365BA
  headVeh=0x00000000
  magDec=0x0000
  magAcc=0x0000

UBX.NAV.RELPOSNED: TOW = 4-02:07:27.0gps NED = -0.32570, -0.75900,  0.06790 m-> heading    246.77 deg,    -4.70 up, len 0.829 m
NAV-RELPOSNED:
  version=0x01
  reserved1=0x00
  refStationID=0x0000
  iTOW=0x150E1F18
  relPosN=0x-0000020
  relPosE=0x-000004B
  relPosD=0x00000006
  relPosLength=0x00000052
  relPosHeading=0x01788BCC
  reserved2=0x00000000
  relPosHPN=0x-39
  relPosHPE=0x-5A
  relPosHPD=0x4F
  relPosHPLength=0x58
  accN=0x0000006A
  accE=0x00000077
  accD=0x000000D6
  accLength=0x00000076
  accHeading=0x000125BA
  reserved3=0x00000000
  flags=0x0000012F

UBX.NAV.PVT:       2020-02-27T02:25:19.0z  -106.2120377 E  35.8185196 N   1965.5 m(MSL) speed = 0.017 m/s at NED: 0.016, 0.005, 0.011
NAV-PVT:
  iTOW=0x151EC0E8
  year=0x07E4
  month=0x02
  day=0x1B
  hour=0x02
  min=0x19
  sec=0x13
  valid=0x37
  tAcc=0x00000002
  nano=0x0006FA43
  fixType=0x03
  flags=0x83
  flags2=0xEA
  numSV=0x17
  lon=0x-3F4EABB9
  lat=0x155978EC
  height=0x001DA1FF
  hMSL=0x001DFD9B
  hAcc=0x00001346
  vAcc=0x00001C11
  velN=0x00000010
  velE=0x00000005
  velD=0x0000000B
  gSpeed=0x00000011
  headMot=0x01F36623
  sAcc=0x0000013D
  headAcc=0x0112A880
  pDOP=0x006A
  flags3=0x00
  reserved1=0x00
  reserved1x=0x2C4365BA
  headVeh=0x00000000
  magDec=0x0000
  magAcc=0x0000

UBX.NAV.RELPOSNED: TOW = 4-02:25:37.0gps NED = -0.32650, -0.96380, -0.04880 m-> heading    251.29 deg,     2.75 up, len 1.019 m
NAV-RELPOSNED:
  version=0x01
  reserved1=0x00
  refStationID=0x0000
  iTOW=0x151EC0E8
  relPosN=0x-0000020
  relPosE=0x-0000060
  relPosD=0x-0000004
  relPosLength=0x00000065
  relPosHeading=0x017F6EA2
  reserved2=0x00000000
  relPosHPN=0x-41
  relPosHPE=0x-26
  relPosHPD=0x-58
  relPosHPLength=0x57
  accN=0x00000064
  accE=0x00000064
  accD=0x00000064
  accLength=0x00000064
  accHeading=0x0000DBF3
  reserved3=0x00000000
  flags=0x00000137

UBX.NAV.PVT:       2020-02-27T02:25:20.0z  -106.2120376 E  35.8185196 N   1965.5 m(MSL) speed = 0.010 m/s at NED: 0.008, 0.006, 0.039
NAV-PVT:
  iTOW=0x151EC4D0
  year=0x07E4
  month=0x02
  day=0x1B
  hour=0x02
  min=0x19
  sec=0x14
  valid=0x37
  tAcc=0x00000002
  nano=0x0006F9EB
  fixType=0x03
  flags=0x83
  flags2=0xEA
  numSV=0x17
  lon=0x-3F4EABB8
  lat=0x155978EC
  height=0x001DA1FA
  hMSL=0x001DFD96
  hAcc=0x00001344
  vAcc=0x00001C13
  velN=0x00000008
  velE=0x00000006
  velD=0x00000027
  gSpeed=0x0000000A
  headMot=0x01F36623
  sAcc=0x000001B9
  headAcc=0x0112A880
  pDOP=0x006A
  flags3=0x00
  reserved1=0x00
  reserved1x=0x2C4365BA
  headVeh=0x00000000
  magDec=0x0000
  magAcc=0x0000

UBX.NAV.RELPOSNED: TOW = 4-02:25:38.0gps NED = -0.32350, -0.96270, -0.04910 m-> heading    251.42 deg,     2.77 up, len 1.017 m
NAV-RELPOSNED:
  version=0x01
  reserved1=0x00
  refStationID=0x0000
  iTOW=0x151EC4D0
  relPosN=0x-0000020
  relPosE=0x-0000060
  relPosD=0x-0000004
  relPosLength=0x00000065
  relPosHeading=0x017FA434
  reserved2=0x00000000
  relPosHPN=0x-23
  relPosHPE=0x-1B
  relPosHPD=0x-5B
  relPosHPLength=0x44
  accN=0x00000064
  accE=0x00000064
  accD=0x00000064
  accLength=0x00000064
  accHeading=0x0000DC60
  reserved3=0x00000000
  flags=0x00000137

UBX.NAV.PVT:       2020-02-27T02:25:21.0z  -106.2120376 E  35.8185196 N   1965.5 m(MSL) speed = 0.012 m/s at NED: 0.012, 0.002, 0.039
NAV-PVT:
  iTOW=0x151EC8B8
  year=0x07E4
  month=0x02
  day=0x1B
  hour=0x02
  min=0x19
  sec=0x15
  valid=0x37
  tAcc=0x00000002
  nano=0x0006F991
  fixType=0x03
  flags=0x83
  flags2=0xEA
  numSV=0x17
  lon=0x-3F4EABB8
  lat=0x155978EC
  height=0x001DA1F0
  hMSL=0x001DFD8C
  hAcc=0x00001315
  vAcc=0x00001BCE
  velN=0x0000000C
  velE=0x00000002
  velD=0x00000027
  gSpeed=0x0000000C
  headMot=0x01F36623
  sAcc=0x000001BB
  headAcc=0x0112A880
  pDOP=0x006A
  flags3=0x00
  reserved1=0x00
  reserved1x=0x2C4365BA
  headVeh=0x00000000
  magDec=0x0000
  magAcc=0x0000

UBX.NAV.RELPOSNED: TOW = 4-02:25:39.0gps NED = -0.32470, -0.96590, -0.05110 m-> heading    251.42 deg,     2.87 up, len 1.020 m
NAV-RELPOSNED:
  version=0x01
  reserved1=0x00
  refStationID=0x0000
  iTOW=0x151EC8B8
  relPosN=0x-0000020
  relPosE=0x-0000060
  relPosD=0x-0000005
  relPosLength=0x00000066
  relPosHeading=0x017FA184
  reserved2=0x00000000
  relPosHPN=0x-2F
  relPosHPE=0x-3B
  relPosHPD=0x-B
  relPosHPLength=0x03
  accN=0x00000064
  accE=0x00000064
  accD=0x00000064
  accLength=0x00000064
  accHeading=0x0000DBA4
  reserved3=0x00000000
  flags=0x00000137

